{
  "records": [
    { "state": "Andhra Pradesh", "district": "Visakhapatnam", "lat": 17.6868, "lon": 83.2185 },
    { "state": "Andhra Pradesh", "district": "Vijayawada", "lat": 16.5062, "lon": 80.6480 },
    { "state": "Andhra Pradesh", "district": "Guntur", "lat": 16.3067, "lon": 80.4365 },

    { "state": "Arunachal Pradesh", "district": "Itanagar", "lat": 27.0844, "lon": 93.6053 },
    { "state": "Arunachal Pradesh", "district": "Tawang", "lat": 27.5860, "lon": 91.8697 },

    { "state": "Assam", "district": "Guwahati", "lat": 26.1445, "lon": 91.7362 },
    { "state": "Assam", "district": "Dibrugarh", "lat": 27.4728, "lon": 94.9120 },

    { "state": "Bihar", "district": "Patna", "lat": 25.6100, "lon": 85.1410 },
    { "state": "Bihar", "district": "Gaya", "lat": 24.7969, "lon": 85.0039 },

    { "state": "Chhattisgarh", "district": "Raipur", "lat": 21.2514, "lon": 81.6296 },
    { "state": "Chhattisgarh", "district": "Bilaspur", "lat": 22.0797, "lon": 82.1409 },

    { "state": "Delhi", "district": "New Delhi", "lat": 28.6139, "lon": 77.2090 },

    { "state": "Goa", "district": "North Goa", "lat": 15.4989, "lon": 73.8278 },
    { "state": "Goa", "district": "South Goa", "lat": 15.2120, "lon": 74.0740 },

    { "state": "Gujarat", "district": "Ahmedabad", "lat": 23.0225, "lon": 72.5714 },
    { "state": "Gujarat", "district": "Surat", "lat": 21.1702, "lon": 72.8311 },
    { "state": "Gujarat", "district": "Vadodara", "lat": 22.3072, "lon": 73.1812 },

    { "state": "Haryana", "district": "Gurgaon", "lat": 28.4595, "lon": 77.0266 },
    { "state": "Haryana", "district": "Faridabad", "lat": 28.4089, "lon": 77.3178 },

    { "state": "Himachal Pradesh", "district": "Shimla", "lat": 31.1048, "lon": 77.1734 },
    { "state": "Himachal Pradesh", "district": "Kullu", "lat": 31.9578, "lon": 77.1095 },

    { "state": "Jharkhand", "district": "Ranchi", "lat": 23.3441, "lon": 85.3096 },
    { "state": "Jharkhand", "district": "Jamshedpur", "lat": 22.8046, "lon": 86.2029 },

    { "state": "Karnataka", "district": "Bengaluru Urban", "lat": 12.9716, "lon": 77.5946 },
    { "state": "Karnataka", "district": "Bengaluru Rural", "lat": 13.2100, "lon": 77.6400 },
    { "state": "Karnataka", "district": "Mysuru", "lat": 12.2958, "lon": 76.6394 },

    { "state": "Kerala", "district": "Thiruvananthapuram", "lat": 8.5241, "lon": 76.9366 },
    { "state": "Kerala", "district": "Kochi", "lat": 9.9312, "lon": 76.2673 },
    { "state": "Kerala", "district": "Kozhikode", "lat": 11.2588, "lon": 75.7804 },

    { "state": "Madhya Pradesh", "district": "Bhopal", "lat": 23.2599, "lon": 77.4126 },
    { "state": "Madhya Pradesh", "district": "Indore", "lat": 22.7196, "lon": 75.8577 },
    { "state": "Madhya Pradesh", "district": "Jabalpur", "lat": 23.1815, "lon": 79.9864 },

    { "state": "Maharashtra", "district": "Mumbai", "lat": 19.0760, "lon": 72.8777 },
    { "state": "Maharashtra", "district": "Pune", "lat": 18.5204, "lon": 73.8567 },
    { "state": "Maharashtra", "district": "Nagpur", "lat": 21.1458, "lon": 79.0882 },

    { "state": "Odisha", "district": "Bhubaneswar", "lat": 20.2961, "lon": 85.8245 },
    { "state": "Odisha", "district": "Cuttack", "lat": 20.4625, "lon": 85.8828 },

    { "state": "Punjab", "district": "Amritsar", "lat": 31.6340, "lon": 74.8723 },
    { "state": "Punjab", "district": "Ludhiana", "lat": 30.9010, "lon": 75.8573 },

    { "state": "Rajasthan", "district": "Jaipur", "lat": 26.9124, "lon": 75.7873 },
    { "state": "Rajasthan", "district": "Udaipur", "lat": 24.5854, "lon": 73.7125 },
    { "state": "Rajasthan", "district": "Jodhpur", "lat": 26.2389, "lon": 73.0243 },

    { "state": "Tamil Nadu", "district": "Chennai", "lat": 13.0827, "lon": 80.2707 },
    { "state": "Tamil Nadu", "district": "Coimbatore", "lat": 11.0168, "lon": 76.9558 },
    { "state": "Tamil Nadu", "district": "Madurai", "lat": 9.9252, "lon": 78.1198 },

    { "state": "Telangana", "district": "Hyderabad", "lat": 17.3850, "lon": 78.4867 },
    { "state": "Telangana", "district": "Warangal", "lat": 17.9784, "lon": 79.5941 },

    { "state": "Uttar Pradesh", "district": "Lucknow", "lat": 26.8467, "lon": 80.9462 },
    { "state": "Uttar Pradesh", "district": "Varanasi", "lat": 25.3176, "lon": 82.9739 },
    { "state": "Uttar Pradesh", "district": "Kanpur", "lat": 26.4499, "lon": 80.3319 },

    { "state": "Uttarakhand", "district": "Dehradun", "lat": 30.3165, "lon": 78.0322 },
    { "state": "Uttarakhand", "district": "Haridwar", "lat": 29.9457, "lon": 78.1642 },

    { "state": "West Bengal", "district": "Kolkata", "lat": 22.5726, "lon": 88.3639 },
    { "state": "West Bengal", "district": "Darjeeling", "lat": 27.0410, "lon": 88.2663 },
    { "state": "Andhra Pradesh", "district": "Tirupati (Chittoor)", "lat": 13.6288, "lon": 79.4192 },
    { "state": "Andhra Pradesh", "district": "Kurnool", "lat": 15.8281, "lon": 78.0373 },
    { "state": "Andhra Pradesh", "district": "Nellore (SPSR)", "lat": 14.4426, "lon": 79.9865 },
    { "state": "Andhra Pradesh", "district": "Anantapur", "lat": 14.6819, "lon": 77.6006 },
    { "state": "Andhra Pradesh", "district": "Kadapa (YSR)", "lat": 14.4674, "lon": 78.8242 },
    { "state": "Andhra Pradesh", "district": "Srikakulam", "lat": 18.2969, "lon": 83.8973 },
    { "state": "Andhra Pradesh", "district": "Vizianagaram", "lat": 18.1067, "lon": 83.3956 },
    { "state": "Andhra Pradesh", "district": "East Godavari (Rajamahendravaram)", "lat": 17.0005, "lon": 81.8040 },
    { "state": "Andhra Pradesh", "district": "West Godavari (Eluru)", "lat": 16.7107, "lon": 81.0952 },
    { "state": "Andhra Pradesh", "district": "Prakasam (Ongole)", "lat": 15.5057, "lon": 80.0499 },

    { "state": "Arunachal Pradesh", "district": "West Kameng (Bomdila)", "lat": 27.2648, "lon": 92.4240 },
    { "state": "Arunachal Pradesh", "district": "Upper Siang (Yingkiong)", "lat": 28.6249, "lon": 95.0028 },
    { "state": "Arunachal Pradesh", "district": "Changlang", "lat": 27.1180, "lon": 95.7357 },

    { "state": "Assam", "district": "Silchar (Cachar)", "lat": 24.8333, "lon": 92.7789 },
    { "state": "Assam", "district": "Tezpur (Sonitpur)", "lat": 26.6528, "lon": 92.7926 },
    { "state": "Assam", "district": "Jorhat", "lat": 26.7509, "lon": 94.2037 },
    { "state": "Assam", "district": "Nagaon", "lat": 26.3493, "lon": 92.6830 },
    { "state": "Assam", "district": "Bongaigaon", "lat": 26.4743, "lon": 90.5583 },

    { "state": "Bihar", "district": "Muzaffarpur", "lat": 26.1209, "lon": 85.3647 },
    { "state": "Bihar", "district": "Bhagalpur", "lat": 25.2417, "lon": 86.9855 },
    { "state": "Bihar", "district": "Darbhanga", "lat": 26.1542, "lon": 85.8918 },
    { "state": "Bihar", "district": "Purnia", "lat": 25.7771, "lon": 87.4753 },
    { "state": "Bihar", "district": "Aurangabad", "lat": 24.7520, "lon": 84.3742 },
    { "state": "Bihar", "district": "Chapra (Saran)", "lat": 25.7796, "lon": 84.7491 },
    { "state": "Bihar", "district": "Begusarai", "lat": 25.4180, "lon": 86.1294 },

    { "state": "Chhattisgarh", "district": "Durg", "lat": 21.1904, "lon": 81.2849 },
    { "state": "Chhattisgarh", "district": "Korba", "lat": 22.3590, "lon": 82.7501 },
    { "state": "Chhattisgarh", "district": "Jagdalpur (Bastar)", "lat": 19.0740, "lon": 82.0087 },
    { "state": "Chhattisgarh", "district": "Ambikapur (Surguja)", "lat": 23.1180, "lon": 83.1950 },

    { "state": "Chandigarh", "district": "Chandigarh", "lat": 30.7333, "lon": 76.7794 },

    { "state": "Dadra & Nagar Haveli and Daman & Diu", "district": "Silvassa", "lat": 20.2730, "lon": 73.0083 },
    { "state": "Dadra & Nagar Haveli and Daman & Diu", "district": "Daman", "lat": 20.3974, "lon": 72.8328 },

    { "state": "Goa", "district": "Panaji (Tiswadi)", "lat": 15.4909, "lon": 73.8278 },

    { "state": "Gujarat", "district": "Rajkot", "lat": 22.3039, "lon": 70.8022 },
    { "state": "Gujarat", "district": "Jamnagar", "lat": 22.4707, "lon": 70.0577 },
    { "state": "Gujarat", "district": "Bhavnagar", "lat": 21.7645, "lon": 72.1519 },
    { "state": "Gujarat", "district": "Kutch (Bhuj)", "lat": 23.2410, "lon": 69.6669 },
    { "state": "Gujarat", "district": "Gandhinagar", "lat": 23.2156, "lon": 72.6369 },
    { "state": "Gujarat", "district": "Dahod", "lat": 22.8390, "lon": 74.2550 },
    { "state": "Gujarat", "district": "Patan", "lat": 23.8500, "lon": 72.1167 },
    { "state": "Gujarat", "district": "Mehsana", "lat": 23.5879, "lon": 72.3693 },

    { "state": "Haryana", "district": "Hisar", "lat": 29.1492, "lon": 75.7217 },
    { "state": "Haryana", "district": "Karnal", "lat": 29.6857, "lon": 76.9905 },
    { "state": "Haryana", "district": "Panipat", "lat": 29.3909, "lon": 76.9635 },
    { "state": "Haryana", "district": "Sonipat", "lat": 28.9931, "lon": 77.0151 },
    { "state": "Haryana", "district": "Rohtak", "lat": 28.8955, "lon": 76.6066 },
    { "state": "Haryana", "district": "Ambala", "lat": 30.3782, "lon": 76.7767 },
    { "state": "Haryana", "district": "Yamunanagar", "lat": 30.1290, "lon": 77.2674 },

    { "state": "Himachal Pradesh", "district": "Kangra (Dharamshala)", "lat": 32.2190, "lon": 76.3234 },
    { "state": "Himachal Pradesh", "district": "Mandi", "lat": 31.7087, "lon": 76.9316 },
    { "state": "Himachal Pradesh", "district": "Solan", "lat": 30.9088, "lon": 77.0970 },
    { "state": "Himachal Pradesh", "district": "Chamba", "lat": 32.5553, "lon": 76.1256 },

    { "state": "Jammu & Kashmir", "district": "Srinagar", "lat": 34.0837, "lon": 74.7973 },
    { "state": "Jammu & Kashmir", "district": "Jammu", "lat": 32.7266, "lon": 74.8570 },
    { "state": "Jammu & Kashmir", "district": "Anantnag", "lat": 33.7300, "lon": 75.1500 },
    { "state": "Jammu & Kashmir", "district": "Baramulla", "lat": 34.2090, "lon": 74.3429 },

    { "state": "Jharkhand", "district": "Dhanbad", "lat": 23.7957, "lon": 86.4304 },
    { "state": "Jharkhand", "district": "Hazaribagh", "lat": 23.9966, "lon": 85.3690 },
    { "state": "Jharkhand", "district": "Bokaro", "lat": 23.6693, "lon": 86.1511 },
    { "state": "Jharkhand", "district": "Giridih", "lat": 24.1841, "lon": 86.3077 },
    { "state": "Jharkhand", "district": "Deoghar", "lat": 24.4761, "lon": 86.6920 },

    { "state": "Karnataka", "district": "Belagavi", "lat": 15.8497, "lon": 74.4977 },
    { "state": "Karnataka", "district": "Dharwad", "lat": 15.4589, "lon": 75.0078 },
    { "state": "Karnataka", "district": "Dakshina Kannada (Mangaluru)", "lat": 12.9141, "lon": 74.8560 },
    { "state": "Karnataka", "district": "Udupi", "lat": 13.3409, "lon": 74.7421 },
    { "state": "Karnataka", "district": "Shivamogga", "lat": 13.9299, "lon": 75.5681 },
    { "state": "Karnataka", "district": "Tumakuru", "lat": 13.3400, "lon": 77.1010 },
    { "state": "Karnataka", "district": "Ballari", "lat": 15.1394, "lon": 76.9214 },
    { "state": "Karnataka", "district": "Kalaburagi (Gulbarga)", "lat": 17.3297, "lon": 76.8343 },
    { "state": "Karnataka", "district": "Raichur", "lat": 16.2055, "lon": 77.3556 },

    { "state": "Kerala", "district": "Alappuzha", "lat": 9.4981, "lon": 76.3388 },
    { "state": "Kerala", "district": "Thrissur", "lat": 10.5276, "lon": 76.2144 },
    { "state": "Kerala", "district": "Palakkad", "lat": 10.7867, "lon": 76.6548 },
    { "state": "Kerala", "district": "Malappuram", "lat": 11.0730, "lon": 76.0740 },
    { "state": "Kerala", "district": "Kannur", "lat": 11.8745, "lon": 75.3704 },
    { "state": "Kerala", "district": "Kollam", "lat": 8.8932, "lon": 76.6141 },
    { "state": "Kerala", "district": "Pathanamthitta", "lat": 9.2659, "lon": 76.7870 },
    { "state": "Kerala", "district": "Kottayam", "lat": 9.5916, "lon": 76.5222 },
    { "state": "Kerala", "district": "Wayanad (Kalpetta)", "lat": 11.6088, "lon": 76.0833 },
    { "state": "Kerala", "district": "Idukki", "lat": 9.8480, "lon": 76.9725 },

    { "state": "Ladakh", "district": "Leh", "lat": 34.1526, "lon": 77.5770 },
    { "state": "Ladakh", "district": "Kargil", "lat": 34.5553, "lon": 76.1349 },

    { "state": "Madhya Pradesh", "district": "Gwalior", "lat": 26.2183, "lon": 78.1828 },
    { "state": "Madhya Pradesh", "district": "Ujjain", "lat": 23.1765, "lon": 75.7885 },
    { "state": "Madhya Pradesh", "district": "Sagar", "lat": 23.8388, "lon": 78.7378 },
    { "state": "Madhya Pradesh", "district": "Satna", "lat": 24.5822, "lon": 80.8316 },
    { "state": "Madhya Pradesh", "district": "Rewa", "lat": 24.5362, "lon": 81.3042 },
    { "state": "Madhya Pradesh", "district": "Ratlam", "lat": 23.3342, "lon": 75.0378 },
    { "state": "Madhya Pradesh", "district": "Chhindwara", "lat": 22.0554, "lon": 78.9382 },

    { "state": "Maharashtra", "district": "Thane", "lat": 19.2183, "lon": 72.9781 },
    { "state": "Maharashtra", "district": "Nashik", "lat": 19.9975, "lon": 73.7898 },
    { "state": "Maharashtra", "district": "Aurangabad", "lat": 19.8762, "lon": 75.3433 },
    { "state": "Maharashtra", "district": "Solapur", "lat": 17.6599, "lon": 75.9064 },
    { "state": "Maharashtra", "district": "Kolhapur", "lat": 16.7040, "lon": 74.2433 },
    { "state": "Maharashtra", "district": "Sangli", "lat": 16.8524, "lon": 74.5815 },
    { "state": "Maharashtra", "district": "Jalgaon", "lat": 21.0077, "lon": 75.5626 },
    { "state": "Maharashtra", "district": "Nanded", "lat": 19.1610, "lon": 77.3210 },
    { "state": "Maharashtra", "district": "Amravati", "lat": 20.9374, "lon": 77.7796 },
    { "state": "Maharashtra", "district": "Akola", "lat": 20.7059, "lon": 77.0219 },
    { "state": "Maharashtra", "district": "Latur", "lat": 18.4088, "lon": 76.5604 },
    { "state": "Maharashtra", "district": "Dhule", "lat": 20.9042, "lon": 74.7749 },

    { "state": "Manipur", "district": "Imphal West", "lat": 24.8170, "lon": 93.9368 },
    { "state": "Manipur", "district": "Thoubal", "lat": 24.6388, "lon": 94.0106 },

    { "state": "Meghalaya", "district": "Shillong (East Khasi Hills)", "lat": 25.5788, "lon": 91.8933 },
    { "state": "Meghalaya", "district": "Tura (West Garo Hills)", "lat": 25.5146, "lon": 90.2026 },

    { "state": "Mizoram", "district": "Aizawl", "lat": 23.7271, "lon": 92.7176 },

    { "state": "Nagaland", "district": "Kohima", "lat": 25.6701, "lon": 94.1086 },
    { "state": "Nagaland", "district": "Dimapur", "lat": 25.9057, "lon": 93.7270 },

    { "state": "Odisha", "district": "Rourkela (Sundargarh)", "lat": 22.2604, "lon": 84.8536 },
    { "state": "Odisha", "district": "Puri", "lat": 19.8135, "lon": 85.8312 },
    { "state": "Odisha", "district": "Sambalpur", "lat": 21.4669, "lon": 83.9812 },
    { "state": "Odisha", "district": "Balasore", "lat": 21.4942, "lon": 86.9317 },
    { "state": "Odisha", "district": "Baripada (Mayurbhanj)", "lat": 21.9409, "lon": 86.7220 },
    { "state": "Odisha", "district": "Berhampur (Ganjam)", "lat": 19.3147, "lon": 84.7941 },

    { "state": "Punjab", "district": "Patiala", "lat": 30.3398, "lon": 76.3869 },
    { "state": "Punjab", "district": "Jalandhar", "lat": 31.3260, "lon": 75.5762 },
    { "state": "Punjab", "district": "Bathinda", "lat": 30.2100, "lon": 74.9455 },
    { "state": "Punjab", "district": "SAS Nagar (Mohali)", "lat": 30.7046, "lon": 76.7179 },
    { "state": "Punjab", "district": "Firozpur", "lat": 30.9258, "lon": 74.6136 },

    { "state": "Rajasthan", "district": "Kota", "lat": 25.2138, "lon": 75.8648 },
    { "state": "Rajasthan", "district": "Ajmer", "lat": 26.4499, "lon": 74.6399 },
    { "state": "Rajasthan", "district": "Bikaner", "lat": 28.0229, "lon": 73.3119 },
    { "state": "Rajasthan", "district": "Alwar", "lat": 27.5520, "lon": 76.6346 },
    { "state": "Rajasthan", "district": "Bharatpur", "lat": 27.2152, "lon": 77.4920 },
    { "state": "Rajasthan", "district": "Sikar", "lat": 27.6094, "lon": 75.1399 },
    { "state": "Rajasthan", "district": "Barmer", "lat": 25.7531, "lon": 71.3924 },
    { "state": "Rajasthan", "district": "Pali", "lat": 25.7711, "lon": 73.3234 },

    { "state": "Sikkim", "district": "Gangtok (East Sikkim)", "lat": 27.3389, "lon": 88.6065 },
    { "state": "Sikkim", "district": "Namchi (South Sikkim)", "lat": 27.1656, "lon": 88.3633 },

    { "state": "Tamil Nadu", "district": "Tiruchirappalli", "lat": 10.7905, "lon": 78.7047 },
    { "state": "Tamil Nadu", "district": "Salem", "lat": 11.6643, "lon": 78.1460 },
    { "state": "Tamil Nadu", "district": "Tirunelveli", "lat": 8.7139, "lon": 77.7567 },
    { "state": "Tamil Nadu", "district": "Erode", "lat": 11.3410, "lon": 77.7172 },
    { "state": "Tamil Nadu", "district": "Vellore", "lat": 12.9165, "lon": 79.1325 },
    { "state": "Tamil Nadu", "district": "Thanjavur", "lat": 10.7870, "lon": 79.1378 },
    { "state": "Tamil Nadu", "district": "Thoothukudi", "lat": 8.7642, "lon": 78.1348 },
    { "state": "Tamil Nadu", "district": "Dindigul", "lat": 10.3624, "lon": 77.9695 },

    { "state": "Telangana", "district": "Nizamabad", "lat": 18.6725, "lon": 78.0941 },
    { "state": "Telangana", "district": "Karimnagar", "lat": 18.4386, "lon": 79.1288 },
    { "state": "Telangana", "district": "Khammam", "lat": 17.2473, "lon": 80.1514 },
    { "state": "Telangana", "district": "Nalgonda", "lat": 17.0575, "lon": 79.2684 },
    { "state": "Telangana", "district": "Mahbubnagar", "lat": 16.7480, "lon": 78.0036 },
    { "state": "Telangana", "district": "Adilabad", "lat": 19.6650, "lon": 78.5320 },

    { "state": "Tripura", "district": "Agartala (West Tripura)", "lat": 23.8315, "lon": 91.2868 },

    { "state": "Uttar Pradesh", "district": "Gautam Buddha Nagar (Noida)", "lat": 28.5355, "lon": 77.3910 },
    { "state": "Uttar Pradesh", "district": "Ghaziabad", "lat": 28.6692, "lon": 77.4538 },
    { "state": "Uttar Pradesh", "district": "Agra", "lat": 27.1767, "lon": 78.0081 },
    { "state": "Uttar Pradesh", "district": "Prayagraj (Allahabad)", "lat": 25.4358, "lon": 81.8463 },
    { "state": "Uttar Pradesh", "district": "Meerut", "lat": 28.9845, "lon": 77.7064 },
    { "state": "Uttar Pradesh", "district": "Gorakhpur", "lat": 26.7606, "lon": 83.3732 },
    { "state": "Uttar Pradesh", "district": "Bareilly", "lat": 28.3670, "lon": 79.4304 },
    { "state": "Uttar Pradesh", "district": "Aligarh", "lat": 27.8974, "lon": 78.0880 },
    { "state": "Uttar Pradesh", "district": "Moradabad", "lat": 28.8386, "lon": 78.7733 },
    { "state": "Uttar Pradesh", "district": "Mathura", "lat": 27.4924, "lon": 77.6737 },
    { "state": "Uttar Pradesh", "district": "Jhansi", "lat": 25.4484, "lon": 78.5685 },
    { "state": "Uttar Pradesh", "district": "Saharanpur", "lat": 29.9679, "lon": 77.5510 },
    { "state": "Uttar Pradesh", "district": "Fatehpur", "lat": 25.9270, "lon": 80.8120 },

    { "state": "Uttarakhand", "district": "Nainital", "lat": 29.3803, "lon": 79.4636 },
    { "state": "Uttarakhand", "district": "Pauri Garhwal", "lat": 30.1520, "lon": 78.7772 },
    { "state": "Uttarakhand", "district": "Udham Singh Nagar (Rudrapur)", "lat": 28.9870, "lon": 79.4141 },
    { "state": "Uttarakhand", "district": "Tehri Garhwal (New Tehri)", "lat": 30.3800, "lon": 78.4800 },

    { "state": "West Bengal", "district": "Howrah", "lat": 22.5958, "lon": 88.2636 },
    { "state": "West Bengal", "district": "Hooghly (Chinsurah)", "lat": 22.9071, "lon": 88.3892 },
    { "state": "West Bengal", "district": "Asansol (Paschim Bardhaman)", "lat": 23.6739, "lon": 86.9524 },
    { "state": "West Bengal", "district": "Durgapur", "lat": 23.5204, "lon": 87.3119 },
    { "state": "West Bengal", "district": "Siliguri (Jalpaiguri)", "lat": 26.7271, "lon": 88.3953 },
    { "state": "West Bengal", "district": "Murshidabad (Berhampore)", "lat": 24.1046, "lon": 88.2516 },
    { "state": "West Bengal", "district": "Nadia (Krishnanagar)", "lat": 23.4028, "lon": 88.5017 },

    { "state": "Andaman & Nicobar Islands", "district": "South Andaman (Port Blair)", "lat": 11.6234, "lon": 92.7265 },

    { "state": "Puducherry", "district": "Puducherry", "lat": 11.9139, "lon": 79.8145 },
    { "state": "Puducherry", "district": "Karaikal", "lat": 10.9167, "lon": 79.8333 },
    { "state": "Puducherry", "district": "Mahe", "lat": 11.7010, "lon": 75.5360 },
    { "state": "Puducherry", "district": "Yanam", "lat": 16.7310, "lon": 82.2130 },

    { "state": "Lakshadweep", "district": "Kavaratti", "lat": 10.5667, "lon": 72.6167 }
  ]
}
